stop_id,stop_name,stop_lat,stop_lon,stop_code,location_type,location_sub_type,parent_station,wheelchair_boarding,stop_direction
004521,Puskás Ferenc Stadion,47.500213,19.104767,F01324,,,MERGED_F01324,1.0,-101.0
007884,Deák Ferenc tér M,47.497413,19.055158,,,,,1.0,
007890,Mester utca / Ferenc körút,47.481671,19.068782,,,,,2.0,123.0
007967,Kelenföld vasútállomás M,47.465732,19.021875,,,,,1.0,
007975,Hűvösvölgy,47.543243,18.964281,,,,,2.0,
008003,Budagyöngye,47.515894,18.999506,,,,,2.0,-29.0
008050,Liptó utca,47.4861,19.007031,,,,,2.0,-147.0
008051,Liptó utca,47.48601,19.007071,,,,,2.0,32.0
008146,Vajda Péter utca,47.481389,19.103174,,,,,1.0,-152.0
008147,Vajda Péter utca,47.48177,19.103619,,,,,1.0,31.0
008148,Kőbányai út / Könyves Kálmán körút,47.485742,19.107077,,,,,1.0,-152.0
008149,Kőbányai út / Könyves Kálmán körút,47.486236,19.107515,,,,,1.0,25.0
008152,Mester utca / Könyves Kálmán körút,47.469596,19.083728,,,,,1.0,-110.0
008153,Mester utca / Könyves Kálmán körút,47.469723,19.084482,,,,,1.0,69.0
008155,Közvágóhíd H,47.468737,19.072756,,,,,1.0,-94.0
008206,Mexikói út M,47.519261,19.091048,,,,,1.0,
008209,Nagy Lajos király útja / Czobor utca,47.52217,19.102815,,,,,1.0,114.0
008222,Örs vezér tere M+H,47.503684,19.136443,,,,,1.0,168.0
008262,Hidegkuti Nándor Stadion,47.49069,19.10891,,,,,1.0,179.0
008265,Közvágóhíd H,47.468737,19.073486,,,,,1.0,89.0
008286,Népliget M,47.476294,19.099288,,,,,1.0,23.0
008377,Nagykőrösi út / Határ út,47.45645,19.11466,,,,,2.0,-86.0
008382,Örs vezér tere M+H,47.502448,19.136843,,,,,1.0,-9.0
008383,Örs vezér tere M+H,47.502623,19.136654,,,,,1.0,167.0
008455,Jászai Mari tér,47.512811,19.047938,,,,,2.0,
008590,Szent Gellért tér - Műegyetem M,47.483337,19.053086,,,,,1.0,-149.0
008591,Szent Gellért tér - Műegyetem M,47.483616,19.053537,,,,,1.0,35.0
008593,Móricz Zsigmond körtér M,47.476836,19.047188,,,,,1.0,-175.0
008702,Ferencvárosi rendelőintézet,47.477155,19.075785,,,,,2.0,134.0
008731,Budagyöngye,47.516074,18.998922,,,,,2.0,120.0
008750,Batthyány tér M+H,47.505696,19.039323,,,,,1.0,177.0
008788,Kőérberek,47.445299,18.999585,,,,,2.0,-92.0
008789,Kőérberek,47.445218,19.000036,,,,,2.0,88.0
008802,Savoya Park,47.435847,19.042385,,,,,1.0,-73.0
008864,Savoya Park,47.435991,19.04151,,,,,1.0,107.0
009041,Haller utca / Soroksári út,47.475726,19.069363,,,,,1.0,-20.0
009154,Atlétikai stadion,47.572575,19.114429,,,,,2.0,15.0
009155,Atlétikai stadion,47.57218,19.11415,,,,,2.0,-165.0
009220,Móricz Zsigmond körtér M,47.477499,19.048349,,,,,1.0,
009632,Nagykőrösi út / Határ út,47.456381,19.114232,,,,,2.0,114.0
009675,Clark Ádám tér,47.497665,19.041541,,,,,1.0,-20.0
009676,Clark Ádám tér,47.497359,19.041594,,,,,1.0,160.0
009753,Blaha Lujza tér M (Népszínház utca),47.495999,19.071283,,,,,2.0,-71.0
036678,Széll Kálmán tér M,47.50671,19.02524,,,,,1.0,38.0
040525,Hentes utca,47.462276,19.08457,,,,,1.0,149.0
040526,Hentes utca,47.4626,19.084411,,,,,1.0,-30.0
044301,Orczy tér (Baross kocsiszín),47.489477,19.090708,,,,,2.0,95.0
044694,Gubacsi út / Határ út,47.444013,19.096358,,,,,2.0,
047875,Orczy tér (Baross kocsiszín),47.489544,19.090388,,,,,2.0,-74.0
056215,Kelenföld vasútállomás,47.464515,19.019618,056215,,,CSLM4KFD,1.0,-86.0
056216,Kelenföld vasútállomás,47.464255,19.020587,056216,,,CSLM4KFD,1.0,110.0
056217,Bikás park,47.464881,19.032345,056217,,,CSLM4BP1,1.0,-111.0
056218,Bikás park,47.465022,19.033386,056218,,,CSLM4BP1,1.0,70.0
056219,Újbuda-központ,47.47286,19.045954,056219,,,CSLM4UK1,1.0,-167.0
056220,Újbuda-központ,47.473559,19.046266,056220,,,CSLM4UK1,1.0,14.0
056221,Móricz Zsigmond körtér,47.476629,19.047227,056221,,,CSLM4MKF,1.0,-167.0
056222,Móricz Zsigmond körtér,47.47731,19.047645,056222,,,CSLM4MKF,1.0,14.0
056223,Szent Gellért tér - Műegyetem,47.482635,19.054014,056223,,,CSLM4SG1,1.0,-130.0
056224,Szent Gellért tér - Műegyetem,47.483039,19.055036,056224,,,CSLM4SG1,1.0,50.0
056225,Fővám tér,47.485792,19.057571,056225,,,CSLM4FT1,1.0,-156.0
056226,Fővám tér,47.486169,19.058009,056226,,,CSLM4FT1,1.0,26.0
056227,Kálvin tér,47.488903,19.061022,056227,,,CSF01289,1.0,-128.0
056228,Kálvin tér,47.489245,19.061938,056228,,,CSF01289,1.0,53.0
056229,Rákóczi tér,47.492725,19.071361,056229,,,CS056230,1.0,-101.0
056230,Rákóczi tér,47.49276,19.072489,056230,,,CS056230,1.0,78.0
056231,II. János Pál pápa tér,47.495593,19.077229,056231,,,CS056232,1.0,-158.0
056232,II. János Pál pápa tér,47.496078,19.077707,056232,,,CS056232,1.0,24.0
056233,Keleti pályaudvar,47.500116,19.080722,056233,,,CSLMXKPB,1.0,-128.0
056234,Keleti pályaudvar,47.500485,19.081704,056234,,,CSLMXKPB,1.0,51.0
066451,Infopark,47.469171,19.059717,,,,,1.0,-85.0
066452,Infopark,47.469072,19.0605,,,,,1.0,96.0
066453,Budafoki út / Dombóvári út,47.469808,19.053655,,,,,1.0,-75.0
066454,Budafoki út / Dombóvári út,47.469646,19.054384,,,,,1.0,104.0
066455,Hauszmann Alajos utca / Szerémi út,47.466536,19.04957,,,,,1.0,-168.0
066456,Hauszmann Alajos utca / Szerémi út,47.467013,19.049756,,,,,1.0,12.0
066457,Hengermalom út / Szerémi út,47.462066,19.048336,,,,,1.0,-168.0
066458,Hengermalom út / Szerémi út,47.462551,19.048509,,,,,1.0,11.0
066459,Etele út / Fehérvári út,47.462389,19.042594,,,,,1.0,-80.0
066460,Etele út / Fehérvári út,47.462254,19.043363,,,,,1.0,100.0
069089,"Margit híd, budai hídfő H",47.515149,19.037569,,,,,1.0,-101.0
069090,"Margit híd, budai hídfő H",47.515122,19.037158,,,,,1.0,-11.0
069091,"Margit híd, budai hídfő H",47.514717,19.035936,,,,,1.0,-163.0
069092,Bem József tér,47.512082,19.039455,,,,,1.0,4.0
069093,Bem József tér,47.511776,19.039296,,,,,1.0,-174.0
072934,Rudas Gyógyfürdő,47.49011,19.047195,,,,,1.0,-39.0
072935,Rudas Gyógyfürdő,47.489824,19.047383,,,,,1.0,143.0
074935,Nagy Lajos király útja / Czobor utca,47.5228,19.101992,F02865,,,MERGED_F02865,1.0,-150.0
081544,Puskás Ferenc Stadion,47.500174,19.106381,F01325,,,MERGED_F01325,1.0,81.0
082200,Bécsi út / Vörösvári út,47.546762,19.029194,,,,,1.0,-10.0
091816,Angyalföld vasútállomás,47.550363,19.091315,,,,,1.0,14.0
091817,Angyalföld vasútállomás,47.549906,19.090953,,,,,1.0,-159.0
099629,Bikás park M,47.463737,19.032434,,,,,1.0,-79.0
099630,Bikás park M,47.463603,19.033309,,,,,1.0,101.0
099631,Bártfai utca,47.464205,19.028906,,,,,1.0,-83.0
099632,Bártfai utca,47.464088,19.029635,,,,,1.0,101.0
099633,Kelenföld vasútállomás M,47.463988,19.02311,,,,,1.0,-169.0
099634,Kelenföld vasútállomás M,47.464473,19.023388,,,,,1.0,14.0
125184,Ősz utca,47.446197,19.100297,F01443,,,MERGED_F01443,1.0,-135.0
F00015,Királyhágó utca,47.494839,19.023732,,,,,1.0,-4.0
F00018,Királyhágó utca,47.495669,19.023612,,,,,1.0,-179.0
F00019,Nagyenyed utca,47.498029,19.023858,,,,,1.0,-175.0
F00020,Nagyenyed utca,47.498335,19.024011,,,,,1.0,5.0
F00024,Déli pályaudvar M,47.500848,19.024021,,,,,1.0,-178.0
F00025,Déli pályaudvar M,47.501106,19.024177,,,,,1.0,3.0
F00026,Déli pályaudvar M,47.500801,19.02499,,,,,2.0,131.0
F00027,Déli pályaudvar M,47.501071,19.024671,,,,,2.0,-50.0
F00051,Halász utca,47.50226,19.039815,,,,,1.0,173.0
F00052,Halász utca,47.501784,19.040028,,,,,1.0,-8.0
F00057,Batthyány tér M+H,47.506002,19.039456,,,,,1.0,-3.0
F00062,Batthyány tér,47.507412,19.036739,F00062,,,CSF00062,2.0,-63.0
F00063,Batthyány tér,47.506826,19.038103,F00063,,,CSF00062,2.0,117.0
F00080,Dózsa György tér,47.49377,19.038224,,,,,2.0,130.0
F00081,Dózsa György tér,47.493698,19.038463,,,,,2.0,-47.0
F00085,Krisztina tér,47.496881,19.032117,,,,,2.0,120.0
F00086,Krisztina tér,47.496621,19.032847,,,,,2.0,-51.0
F00089,Mikó utca,47.498365,19.028997,,,,,2.0,-55.0
F00090,Mikó utca,47.498374,19.028747,,,,,2.0,127.0
F00093,Déli pályaudvar,47.499373,19.024769,F00093,,,CSF00094,2.0,159.0
F00094,Déli pályaudvar,47.50045,19.024604,F00094,,,CSF00094,2.0,-5.0
F00103,Döbrentei tér,47.491486,19.043705,,,,,1.0,132.0
F00105,Döbrentei tér,47.491737,19.043373,,,,,1.0,-53.0
F00106,Várkert Bazár,47.493536,19.044169,,,,,1.0,-29.0
F00107,Várkert Bazár,47.493186,19.044315,,,,,1.0,152.0
F00135,Kolosy tér,47.527983,19.03766,,,,,1.0,8.0
F00136,Kolosy tér,47.527687,19.037474,,,,,1.0,-172.0
F00141,Margitsziget / Margit híd,47.514717,19.042521,,,,,1.0,-93.0
F00142,Margitsziget / Margit híd,47.514439,19.044327,,,,,1.0,118.0
F00156,Városmajor,47.509595,19.013212,,,,,2.0,-74.0
F00157,Városmajor,47.50955,19.013012,,,,,2.0,104.0
F00161,Nagyajtai utca,47.513548,19.002854,,,,,2.0,-48.0
F00163,Nagyajtai utca,47.513548,19.002642,,,,,2.0,131.0
F00165,Budagyöngye,47.516092,18.999188,,,,,2.0,-42.0
F00167,Budagyöngye,47.516146,18.998975,,,,,2.0,137.0
F00189,"Margit híd, budai hídfő H",47.514546,19.038897,,,,,1.0,88.0
F00192,"Margit híd, budai hídfő H",47.514618,19.038193,,,,,1.0,-92.0
F00198,Mechwart liget,47.510778,19.031462,,,,,1.0,-119.0
F00199,Mechwart liget,47.510939,19.032114,,,,,1.0,64.0
F00236,"Margit híd, budai hídfő H",47.515041,19.038937,,,,,1.0,103.0
F00239,Szent Lukács Gyógyfürdő,47.517118,19.036533,,,,,1.0,-21.0
F00240,Szent Lukács Gyógyfürdő,47.51684,19.036573,,,,,1.0,159.0
F00241,Komjádi Béla utca,47.520635,19.036798,,,,,1.0,10.0
F00242,Komjádi Béla utca,47.520338,19.036612,,,,,1.0,-169.0
F00243,Zsigmond tér,47.524251,19.03693,,,,,1.0,0.0
F00244,Zsigmond tér,47.523954,19.036824,,,,,1.0,180.0
F00307,Széna tér,47.508114,19.026739,,,,,1.0,-143.0
F00308,Széna tér,47.508483,19.027323,,,,,1.0,37.0
F00312,Kelemen László utca,47.521952,18.990326,,,,,1.0,-43.0
F00313,Kelemen László utca,47.521602,18.990632,,,,,1.0,138.0
F00314,Zuhatag sor,47.526015,18.986046,,,,,1.0,-32.0
F00315,Zuhatag sor,47.526159,18.985767,,,,,1.0,148.0
F00316,Nagyhíd,47.528541,18.983692,,,,,2.0,-32.0
F00317,Nagyhíd,47.528245,18.983825,,,,,2.0,148.0
F00318,Vadaskerti utca,47.531796,18.980992,,,,,2.0,-30.0
F00319,Vadaskerti utca,47.531885,18.98078,,,,,2.0,148.0
F00345,Heinrich István utca,47.539461,18.970264,,,,,1.0,-71.0
F00346,Heinrich István utca,47.539281,18.970689,,,,,1.0,109.0
F00347,Völgy utca,47.536739,18.975395,,,,,2.0,-36.0
F00348,Völgy utca,47.536415,18.975621,,,,,2.0,142.0
F00408,Szent János Kórház,47.509594,19.010039,,,,,2.0,28.0
F00409,Szent János Kórház,47.509728,19.009813,,,,,2.0,89.0
F00411,Szent János Kórház,47.509837,19.009411,,,,,2.0,-90.0
F00425,Nyúl utca,47.508723,19.018044,,,,,2.0,-79.0
F00426,Nyúl utca,47.508669,19.017872,,,,,2.0,101.0
F00430,Akadémia,47.519337,18.9939,,,,,2.0,135.0
F00432,Akadémia,47.519292,18.994126,,,,,2.0,-45.0
F00568,Bécsi út / Vörösvári út,47.548489,19.028994,F00568,,,MERGED_F00568,1.0,
F00569,Bécsi út / Vörösvári út,47.548768,19.029379,,,,,1.0,
F00586,Óbudai rendelőintézet,47.545957,19.033456,,,,,1.0,-42.0
F00587,Óbudai rendelőintézet,47.544878,19.034772,,,,,1.0,137.0
F00590,Váradi utca,47.543524,19.029926,,,,,1.0,171.0
F00591,Váradi utca,47.54383,19.029979,,,,,1.0,-10.0
F00594,Szent Margit Kórház,47.540637,19.030923,,,,,1.0,-15.0
F00595,Szent Margit Kórház,47.540313,19.03091,,,,,1.0,165.0
F00598,Katinyi mártírok parkja,47.532615,19.036517,,,,,1.0,-40.0
F00599,Katinyi mártírok parkja,47.532318,19.036703,,,,,1.0,141.0
F00614,Flórián tér,47.541517,19.03996,,,,,1.0,-50.0
F00615,Flórián tér,47.541109,19.040538,,,,,1.0,135.0
F00626,Szentlélek tér H,47.539593,19.045207,,,,,1.0,-73.0
F00629,Szentlélek tér H,47.539377,19.045937,,,,,1.0,101.0
F00684,Selmeci utca,47.535754,19.0337,,,,,1.0,-28.0
F00685,Selmeci utca,47.536042,19.033342,,,,,1.0,154.0
F00725,"Káposztásmegyer, Megyeri út",47.59342,19.120491,,,,,2.0,
F00735,Járműtelep utca,47.582539,19.117047,,,,,2.0,0.0
F00736,Járműtelep utca,47.582099,19.1169,,,,,2.0,180.0
F00743,Óceán-árok utca,47.578088,19.116151,,,,,2.0,11.0
F00744,Óceán-árok utca,47.577716,19.115915,,,,,2.0,-170.0
F00786,Kiss Ernő utca,47.565003,19.094022,,,,,1.0,-91.0
F00788,Kiss Ernő utca,47.56494,19.09462,,,,,1.0,90.0
F00790,Újpesti rendelőintézet,47.565181,19.100533,,,,,1.0,-92.0
F00792,Újpesti rendelőintézet,47.565064,19.099842,,,,,1.0,88.0
F00795,Szent István tér (Újpesti piac),47.562815,19.090594,,,,,2.0,-168.0
F00796,Szent István tér (Újpesti piac),47.56317,19.090765,,,,,2.0,13.0
F00797,Újpest-központ M,47.560157,19.089739,,,,,2.0,13.0
F00798,Újpest-központ M,47.560643,19.089833,,,,,2.0,-167.0
F00818,Tél utca / Pozsonyi utca,47.556218,19.088846,,,,,2.0,-16.0
F00819,Tél utca / Pozsonyi utca,47.554968,19.089669,,,,,2.0,143.0
F00822,Angyalföld kocsiszín,47.553015,19.091687,,,,,2.0,-176.0
F00823,Angyalföld kocsiszín,47.552916,19.091846,,,,,2.0,0.0
F00826,Bőröndös utca,47.585597,19.11749,,,,,2.0,15.0
F00827,Bőröndös utca,47.58521,19.117197,,,,,2.0,-166.0
F00845,Rákospalota-Újpest vasútállomás,47.566227,19.111896,,,,,2.0,16.0
F00846,Rákospalota-Újpest vasútállomás,47.565841,19.111604,,,,,2.0,-165.0
F00880,Szülőotthon,47.565232,19.106008,,,,,1.0,88.0
F00881,Szülőotthon,47.56534,19.106434,,,,,1.0,-92.0
F00897,Újpest-városkapu,47.559495,19.081099,F00897,,,CSF00897,1.0,65.0
F00898,Újpest-városkapu,47.559146,19.079567,F00898,,,CSF00897,1.0,-117.0
F00904,Bőrfestő utca,47.587809,19.11837,,,,,2.0,15.0
F00905,Bőrfestő utca,47.587422,19.118064,,,,,2.0,-165.0
F00912,Újpest-központ,47.560144,19.091319,F00912,,,CSLM3UKB,1.0,115.0
F00913,Újpest-központ,47.560437,19.08976,F00913,,,CSLM3UKB,1.0,-87.0
F00918,Fővám tér M,47.486754,19.056841,,,,,1.0,-37.0
F00919,Fővám tér M,47.486862,19.056602,,,,,1.0,143.0
F00921,Fővám tér M,47.486916,19.05724,,,,,1.0,-127.0
F00922,Fővám tér M,47.487186,19.05781,,,,,1.0,54.0
F00925,Jászai Mari tér,47.513099,19.048177,,,,,1.0,-69.0
F00926,Jászai Mari tér,47.512847,19.048841,,,,,1.0,112.0
F00933,Nyugati pályaudvar M,47.510274,19.056168,,,,,1.0,-56.0
F00935,Nyugati pályaudvar M,47.509896,19.056659,,,,,1.0,130.0
F00936,Nyugati pályaudvar,47.51172,19.056873,F00936,,,CSLM3NYA,1.0,27.0
F00937,Nyugati pályaudvar,47.510828,19.055952,F00937,,,CSLM3NYA,1.0,-152.0
F00952,Ferenciek tere,47.492808,19.056091,F00952,,,CSLM3FTB,1.0,-32.0
F00953,Ferenciek tere,47.49182,19.056789,F00953,,,CSLM3FTB,1.0,144.0
F00954,Deák Ferenc tér,47.49866,19.054545,F00954,,,CSLMXDF1,1.0,-3.0
F00955,Deák Ferenc tér,47.497591,19.054525,F00955,,,CSLMXDF1,1.0,176.0
F00956,Arany János utca,47.504733,19.054679,F00956,,,CSF00956,1.0,4.0
F00957,Arany János utca,47.50367,19.054513,F00957,,,CSF00956,1.0,180.0
F00958,Kossuth Lajos tér,47.505808,19.044242,F00958,,,CSF00958,2.0,-79.0
F00959,Kossuth Lajos tér,47.505511,19.045769,F00959,,,CSF00958,2.0,100.0
F00960,Deák Ferenc tér,47.498843,19.053605,F00960,,,CSLMXDF1,2.0,-11.0
F00961,Deák Ferenc tér,47.497593,19.053857,F00961,,,CSLMXDF1,2.0,165.0
F00962,Deák Ferenc tér,47.49772,19.05367,F00962,,,CSLMXDF1,2.0,-102.0
F00963,Deák Ferenc tér,47.497728,19.054142,F00963,,,CSLMXDF1,2.0,69.0
F00964,Vörösmarty tér,47.496671,19.050193,F00964,,,CSLM1VTV,2.0,-119.0
F00965,Vörösmarty tér,47.496737,19.050593,F00965,,,CSLM1VTV,2.0,52.0
F00966,Vigadó tér,47.495569,19.048402,,,,,2.0,-23.0
F00967,Vigadó tér,47.495614,19.048322,,,,,2.0,156.0
F00968,"Országház, látogatóközpont",47.50915,19.04677,,,,,1.0,6.0
F00969,"Országház, látogatóközpont",47.508853,19.046584,,,,,1.0,-174.0
F00971,Kossuth Lajos tér M,47.505732,19.046836,,,,,1.0,-98.0
F00972,Kossuth Lajos tér M,47.505679,19.047288,,,,,1.0,82.0
F00973,Széchenyi István tér,47.50066,19.04608,,,,,2.0,154.0
F00974,Széchenyi István tér,47.500714,19.046173,,,,,2.0,-27.0
F00975,Eötvös tér,47.497827,19.047168,,,,,2.0,-2.0
F00976,Eötvös tér,47.497944,19.047022,,,,,2.0,-179.0
F00996,Bajcsy-Zsilinszky út,47.499841,19.055259,F00996,,,CSF00997,2.0,-135.0
F00997,Bajcsy-Zsilinszky út,47.499937,19.055655,F00997,,,CSF00997,2.0,44.0
F00999,Március 15. tér,47.490883,19.051614,,,,,1.0,-29.0
F01000,Március 15. tér,47.490694,19.051654,,,,,1.0,152.0
F01005,Kálvin tér M,47.489219,19.061248,,,,,2.0,-153.0
F01006,Kálvin tér M,47.489461,19.061486,,,,,2.0,27.0
F01012,Astoria M,47.494561,19.059696,,,,,1.0,154.0
F01013,Astoria M,47.49412,19.060147,F01013,,,MERGED_F01013,2.0,-20.0
F01018,Astoria,47.494594,19.060933,F01018,,,CSF01019,2.0,-107.0
F01019,Astoria,47.494825,19.062457,F01019,,,CSF01019,2.0,69.0
F01035,Király utca / Erzsébet körút,47.503249,19.06583,,,,,1.0,-37.0
F01037,Király utca / Erzsébet körút,47.502781,19.066202,,,,,1.0,143.0
F01061,Dévai utca,47.518494,19.064667,,,,,2.0,-129.0
F01062,Dévai utca,47.51871,19.065238,,,,,2.0,51.0
F01079,Opera,47.502197,19.058761,F01079,,,CSLM1OPV,2.0,-135.0
F01080,Opera,47.502305,19.059161,F01080,,,CSLM1OPV,2.0,45.0
F01081,Oktogon M,47.505561,19.062871,,,,,1.0,140.0
F01082,Oktogon M,47.505939,19.062406,,,,,1.0,-43.0
F01085,Oktogon,47.504923,19.062823,F01085,,,CSLM1OKV,2.0,-135.0
F01086,Oktogon,47.505023,19.063233,F01086,,,CSLM1OKV,2.0,45.0
F01092,Vörösmarty utca,47.507149,19.066118,F01092,,,CSF01093,2.0,-135.0
F01093,Vörösmarty utca,47.507238,19.066529,F01093,,,CSF01093,2.0,45.0
F01095,Kodály körönd,47.509175,19.069116,F01095,,,CSF01096,2.0,-135.0
F01096,Kodály körönd,47.509261,19.069544,F01096,,,CSF01096,2.0,45.0
F01100,Bajza utca,47.511237,19.072271,F01100,,,CSF01101,2.0,-135.0
F01101,Bajza utca,47.511342,19.072662,F01101,,,CSF01101,2.0,45.0
F01102,Hősök tere,47.514055,19.076439,F01102,,,CSLM1HTV,2.0,-135.0
F01103,Hősök tere,47.51411,19.076883,F01103,,,CSLM1HTV,2.0,45.0
F01111,Wesselényi utca / Erzsébet körút,47.500325,19.068948,,,,,1.0,-28.0
F01112,Wesselényi utca / Erzsébet körút,47.49983,19.06916,,,,,1.0,152.0
F01168,Blaha Lujza tér M,47.496781,19.070699,,,,,1.0,-14.0
F01169,Blaha Lujza tér M,47.496224,19.070672,,,,,1.0,169.0
F01180,Kőbányai út 21.,47.488985,19.095841,,,,,2.0,-80.0
F01181,Kőbányai út 21.,47.488949,19.095496,,,,,2.0,100.0
F01188,Corvin-negyed,47.485424,19.070866,F01188,,,CSLM3CNJ,1.0,-63.0
F01189,Corvin-negyed,47.484862,19.072242,F01189,,,CSLM3CNJ,1.0,114.0
F01191,Corvin-negyed M,47.485476,19.069898,,,,,1.0,15.0
F01194,Corvin-negyed M,47.486186,19.070057,,,,,1.0,-169.0
F01197,Harminckettesek tere,47.489559,19.070589,,,,,1.0,-174.0
F01199,Harminckettesek tere,47.490332,19.070815,,,,,1.0,6.0
F01200,Rákóczi tér M,47.492851,19.071188,,,,,1.0,5.0
F01201,Rákóczi tér M,47.492383,19.071016,,,,,1.0,-175.0
F01213,Magdolna utca,47.492234,19.08787,,,,,2.0,143.0
F01215,Magdolna utca,47.492873,19.087298,,,,,2.0,-37.0
F01219,Orczy tér,47.489805,19.09056,,,,,2.0,141.0
F01220,Orczy tér,47.490273,19.090204,,,,,2.0,-39.0
F01228,Golgota tér,47.484992,19.092865,,,,,2.0,174.0
F01229,Golgota tér,47.485469,19.092919,,,,,2.0,-6.0
F01232,Semmelweis Klinikák,47.483413,19.07703,F01232,,,CSF01232,1.0,-65.0
F01233,Semmelweis Klinikák,47.482872,19.078425,F01233,,,CSF01232,1.0,116.0
F01236,Elnök utca,47.481224,19.093419,,,,,2.0,175.0
F01237,Elnök utca,47.481763,19.09346,,,,,2.0,-5.0
F01245,Nagyvárad tér M,47.479381,19.089875,,,,,2.0,-124.0
F01246,Nagyvárad tér M,47.479489,19.09034,,,,,2.0,55.0
F01252,Nagyvárad tér,47.478999,19.089768,F01252,,,CSLM3NTF,1.0,-62.0
F01253,Nagyvárad tér,47.478365,19.091071,F01253,,,CSLM3NTF,1.0,118.0
F01263,Kőbányai út 31.,47.487614,19.103854,,,,,2.0,111.0
F01264,Kőbányai út 31.,47.487632,19.10412,,,,,2.0,-68.0
F01265,Kőbányai út / Könyves Kálmán körút,47.486524,19.108205,,,,,2.0,-68.0
F01266,Kőbányai út / Könyves Kálmán körút,47.486343,19.108577,,,,,2.0,112.0
F01271,Hidegkuti Nándor Stadion,47.49004,19.108249,,,,,2.0,79.0
F01274,Hidegkuti Nándor Stadion,47.490192,19.109669,,,,,2.0,-100.0
F01275,Hidegkuti Nándor Stadion,47.491164,19.108967,,,,,1.0,0.0
F01278,Asztalos Sándor út,47.490096,19.105038,,,,,2.0,-89.0
F01279,Asztalos Sándor út,47.490015,19.105515,,,,,2.0,90.0
F01280,"Salgótarjáni utca, temető",47.491026,19.096334,,,,,2.0,-80.0
F01281,"Salgótarjáni utca, temető",47.490864,19.097037,,,,,2.0,98.0
F01282,Népliget,47.475479,19.099291,F01282,,,CSLM3NLB,1.0,-65.0
F01283,Népliget,47.474913,19.100672,F01283,,,CSLM3NLB,1.0,115.0
F01286,Népliget M,47.475879,19.098907,,,,,1.0,-148.0
F01289,Kálvin tér,47.49017,19.06064,F01289,,,CSF01289,1.0,-60.0
F01290,Kálvin tér,47.48949,19.06192,F01290,,,CSF01289,1.0,120.0
F01291,Blaha Lujza tér,47.496638,19.068841,F01291,,,CSLM2BLA,2.0,-112.0
F01292,Blaha Lujza tér,47.497006,19.070274,F01292,,,CSLM2BLA,2.0,65.0
F01297,Blaha Lujza tér M (Népszínház utca),47.496071,19.071336,,,,,2.0,-85.0
F01298,Blaha Lujza tér M (Népszínház utca),47.495648,19.072742,,,,,2.0,84.0
F01300,II. János Pál pápa tér M,47.494819,19.07655,,,,,2.0,108.0
F01301,II. János Pál pápa tér M,47.494666,19.077599,,,,,2.0,-72.0
F01309,Dologház utca,47.496445,19.08312,,,,,2.0,142.0
F01310,Dologház utca,47.496364,19.083399,,,,,2.0,-37.0
F01311,Keleti pályaudvar M,47.499315,19.082552,,,,,2.0,
F01322,Puskás Ferenc Stadion M,47.500387,19.108151,,,,,1.0,170.0
F01323,Puskás Ferenc Stadion M,47.50095,19.108089,,,,,1.0,-11.0
F01324,Puskás Ferenc Stadion,47.500213,19.104767,F01324,,,MERGED_F01324,1.0,-101.0
F01325,Puskás Ferenc Stadion,47.500174,19.106381,F01325,,,MERGED_F01325,1.0,81.0
F01328,Hős utca,47.496282,19.109135,,,,,1.0,0.0
F01329,Hős utca,47.495706,19.109078,,,,,1.0,-179.0
F01330,Teleki László tér,47.493604,19.081884,,,,,1.0,108.0
F01331,Teleki László tér,47.493549,19.082787,,,,,1.0,-84.0
F01335,Keleti pályaudvar,47.499778,19.081282,F01335,,,CSLMXKPB,2.0,-89.0
F01336,Keleti pályaudvar,47.499683,19.082881,F01336,,,CSLMXKPB,2.0,91.0
F01341,Koppány utca,47.466162,19.081204,,,,,2.0,151.0
F01342,Koppány utca,47.465989,19.081497,,,,,2.0,-29.0
F01343,Zsil utca,47.482949,19.062719,,,,,2.0,-44.0
F01346,Zsil utca,47.483012,19.06244,,,,,2.0,136.0
F01349,Kén utca,47.457031,19.089142,,,,,2.0,159.0
F01350,Kén utca,47.457319,19.089142,,,,,2.0,-21.0
F01357,Fegyvergyár utca,47.449015,19.093684,,,,,2.0,159.0
F01358,Fegyvergyár utca,47.448322,19.094227,,,,,2.0,-21.0
F01366,Epreserdő utca,47.459683,19.111743,,,,,1.0,-24.0
F01367,Epreserdő utca,47.459755,19.111517,,,,,1.0,156.0
F01373,Boráros tér H,47.480125,19.066075,,,,,2.0,-127.0
F01374,Boráros tér H,47.480376,19.066698,,,,,2.0,54.0
F01378,Mester utca / Ferenc körút,47.482184,19.068463,,,,,1.0,-163.0
F01379,Mester utca / Ferenc körút,47.481608,19.068702,,,,,2.0,
F01380,Mester utca / Ferenc körút,47.482751,19.068848,,,,,1.0,14.0
F01381,Bokréta utca,47.479503,19.07223,,,,,2.0,-47.0
F01382,Bokréta utca,47.479116,19.072655,,,,,2.0,133.0
F01384,Haller utca / Soroksári út,47.473981,19.070649,F01384,,,MERGED_F01384,1.0,152.0
F01388,Haller utca / Soroksári út,47.475285,19.071658,,,,,1.0,75.0
F01390,Haller utca / Mester utca,47.476021,19.076355,,,,,2.0,-102.0
F01391,Haller utca / Mester utca,47.476057,19.076819,,,,,2.0,78.0
F01393,Haller utca / Mester utca,47.475625,19.077774,,,,,2.0,149.0
F01394,Haller utca / Mester utca,47.475906,19.077636,,,,,2.0,-30.0
F01396,Müpa - Nemzeti Színház H,47.470958,19.073182,,,,,1.0,150.0
F01397,Müpa - Nemzeti Színház H,47.471255,19.072969,,,,,1.0,-30.0
F01398,Vágóhíd utca,47.473403,19.079922,,,,,2.0,146.0
F01399,Vágóhíd utca,47.473151,19.080293,,,,,2.0,-33.0
F01401,Közvágóhíd H,47.467504,19.075899,F01401,,,MERGED_F01401,2.0,
F01413,Magyar Aszfalt,47.459702,19.087871,,,,,2.0,-20.0
F01414,Magyar Aszfalt,47.459828,19.087645,,,,,2.0,150.0
F01421,Illatos út,47.454674,19.090479,,,,,2.0,159.0
F01424,Illatos út,47.453621,19.091248,,,,,2.0,-21.0
F01427,Timót utca,47.452218,19.09187,,,,008874,2.0,159.0
F01428,Timót utca,47.451831,19.092254,,,,,2.0,-21.0
F01436,Gubacsi út / Határ út,47.444067,19.096928,,,,,2.0,
F01437,Gubacsi út / Határ út,47.444292,19.09653,,,,,2.0,-37.0
F01438,Gubacsi út / Határ út,47.444507,19.09775,,,,,1.0,-134.0
F01439,Gubacsi út / Határ út,47.443779,19.096742,,,,,1.0,44.0
F01442,Ősz utca,47.44605,19.10022,,,,,1.0,46.0
F01443,Ősz utca,47.446197,19.100297,F01443,,,MERGED_F01443,1.0,-135.0
F01444,Jókai Mór utca / Határ út,47.44901,19.104503,,,,,1.0,-135.0
F01445,Jókai Mór utca / Határ út,47.448642,19.104145,,,,,1.0,45.0
F01446,Jókai Mór utca / Határ út,47.44856,19.10498,,,,,2.0,-43.0
F01447,Mártírok útja / Határ út,47.452039,19.109095,,,,,1.0,-133.0
F01448,Mártírok útja / Határ út,47.451841,19.108975,,,,,1.0,46.0
F01452,Nagykőrösi út / Határ út,47.455443,19.114062,,,,,1.0,-134.0
F01454,Nagykőrösi út / Határ út,47.455742,19.114682,,,,,1.0,45.0
F01457,Mészáros Lőrinc utca,47.459543,19.120283,,,,,2.0,45.0
F01458,Mészáros Lőrinc utca,47.459714,19.120363,,,,,2.0,-134.0
F01461,Határ út M,47.465008,19.12618,,,,,1.0,
F01484,Közterületfenntartó Zrt.,47.467832,19.107657,,,,,1.0,163.0
F01485,Közterületfenntartó Zrt.,47.46814,19.107681,,,,,1.0,-11.0
F01491,Ecseri út M,47.471087,19.10912,,,,,1.0,-149.0
F01493,Ecseri út,47.471127,19.110331,F01493,,,CSLM3EUA,1.0,-62.0
F01494,Ecseri út,47.470529,19.111646,F01494,,,CSLM3EUA,1.0,118.0
F01495,Ecseri út M,47.47126,19.109422,,,,,1.0,25.0
F01498,Albert Flórián út,47.47239,19.095534,,,,,1.0,-127.0
F01499,Albert Flórián út,47.472723,19.096118,,,,,1.0,41.0
F01502,Ferencváros vá. - Málenkij Robot Eh.,47.470305,19.089313,,,,,1.0,71.0
F01503,Ferencváros vá. - Málenkij Robot Eh.,47.470172,19.088529,,,,,1.0,-101.0
F01506,Mester utca / Könyves Kálmán körút,47.469814,19.082997,,,,,2.0,161.0
F01507,Mester utca / Könyves Kálmán körút,47.470226,19.08276,,,,,2.0,-22.0
F01511,Balázs Béla utca,47.476946,19.08259,,,,,2.0,-102.0
F01512,Balázs Béla utca,47.476775,19.081953,,,,,2.0,78.0
F01518,Boráros tér H,47.480043,19.066075,,,,,2.0,-36.0
F01519,Boráros tér H,47.479693,19.0663,,,,,2.0,145.0
F01525,Csengettyű utca,47.46357,19.109479,,,,,1.0,163.0
F01526,Csengettyű utca,47.463444,19.109691,,,,,1.0,-17.0
F01531,Balkán utca,47.474062,19.116058,,,,,1.0,-134.0
F01532,Balkán utca,47.473748,19.115739,,,,,1.0,47.0
F01535,Fertő utca / Bihari utca,47.476066,19.119165,,,,,1.0,-134.0
F01538,Fertő utca / Bihari utca,47.475742,19.118819,,,,,1.0,47.0
F01541,Határ út,47.466285,19.124821,F01541,,,CSF01541,1.0,-73.0
F01542,Határ út,47.465749,19.126228,F01542,,,CSF01541,1.0,112.0
F01543,Kőbánya-Kispest,47.46393,19.147412,F01543,,,CSLM3KKA,1.0,-66.0
F01544,Kőbánya-Kispest,47.463443,19.148764,F01544,,,CSLM3KKA,1.0,117.0
F01561,Őrház,47.489473,19.124517,,,,,2.0,-105.0
F01562,Őrház,47.489482,19.125008,,,,,2.0,75.0
F01565,Egészségház,47.484081,19.117318,,,,,2.0,-63.0
F01566,Egészségház,47.484018,19.117198,,,,,2.0,114.0
F01567,Mázsa utca,47.483195,19.123384,,,,,2.0,-81.0
F01568,Mázsa utca,47.483106,19.123287,,,,,2.0,99.0
F01574,Kőbánya alsó vasútállomás (Mázsa tér),47.481718,19.127066,,,,,1.0,15.0
F01575,Kocsis Sándor Sportközpont,47.478717,19.12348,,,,,1.0,-134.0
F01576,Kocsis Sándor Sportközpont,47.478878,19.123878,,,,,1.0,44.0
F01594,Új köztemető,47.473299,19.177383,,,,,2.0,-109.0
F01596,Új köztemető,47.473371,19.177835,,,,,2.0,49.0
F01617,Jászberényi út / Maglódi út,47.490048,19.14908,,,,,2.0,-44.0
F01618,Jászberényi út / Maglódi út,47.490237,19.148629,,,,,2.0,131.0
F01619,Sörgyár,47.491733,19.14477,,,,,2.0,112.0
F01620,Sörgyár,47.491941,19.144346,,,,,2.0,-68.0
F01623,Élessarok,47.491037,19.138015,,,,,1.0,-140.0
F01624,Élessarok,47.491495,19.138759,,,,,1.0,40.0
F01625,Élessarok,47.491828,19.138287,,,,,2.0,-105.0
F01626,Élessarok,47.491801,19.138666,,,,,2.0,76.0
F01645,Kőbánya alsó vasútállomás,47.482464,19.128487,,,,,1.0,-83.0
F01646,Kőbánya alsó vasútállomás,47.482355,19.129429,,,,,1.0,94.0
F01649,Szent László tér,47.484998,19.131569,,,,,1.0,-171.0
F01650,Szent László tér,47.485304,19.131729,,,,,1.0,15.0
F01673,Gitár utca,47.487031,19.153055,,,,,2.0,-42.0
F01674,Gitár utca,47.487085,19.152889,,,,,2.0,137.0
F01676,Kada utca / Maglódi út,47.482897,19.158401,,,,,2.0,138.0
F01679,Kada utca / Maglódi út,47.482709,19.158738,,,,,2.0,-42.0
F01707,Venyige utca,47.477458,19.165653,,,,,1.0,138.0
F01708,Venyige utca,47.477404,19.165878,,,,,1.0,-42.0
F01712,Sírkert út,47.473701,19.171773,,,,,2.0,99.0
F01713,Sírkert út,47.473828,19.171309,,,,,2.0,-81.0
F01727,Kőbánya felső vasútállomás,47.490942,19.133158,,,,,2.0,-104.0
F01728,Kőbánya felső vasútállomás,47.490825,19.132932,,,,,2.0,76.0
F01729,Halom utca,47.490163,19.128618,,,,,2.0,-104.0
F01730,Halom utca,47.490046,19.128353,,,,,2.0,76.0
F01731,Eiffel Műhelyház,47.485009,19.113882,,,,,2.0,-69.0
F01732,Eiffel Műhelyház,47.485136,19.1131,,,,,2.0,112.0
F01742,Pillangó utca,47.501051,19.118839,F01742,,,CSLM2PU2,1.0,-107.0
F01743,Pillangó utca,47.501204,19.120417,F01743,,,CSLM2PU2,1.0,80.0
F01749,Örs vezér tere,47.502922,19.135963,F01749,,,CSLM2OVE,1.0,
F01757,Örs vezér tere M+H,47.504098,19.136457,,,,,1.0,-11.0
F01782,Terebesi utca,47.494129,19.141032,,,,,1.0,158.0
F01783,Terebesi utca,47.494687,19.140349,,,,,1.0,-55.0
F01798,Kőbányai garázs,47.490712,19.114248,,,,,2.0,-99.0
F01799,Kőbányai garázs,47.490586,19.113995,,,,,2.0,81.0
F01808,Izraelita temető,47.479379,19.177889,,,,,2.0,
F01826,Ónodi utca,47.489231,19.136141,,,,,1.0,38.0
F01827,Ónodi utca,47.488602,19.135237,,,,,1.0,-142.0
F01829,Kocka utca,47.484879,19.15597,,,,,2.0,-45.0
F01830,Kocka utca,47.484933,19.155718,,,,,2.0,138.0
F01835,Bajcsy-Zsilinszky Kórház,47.480034,19.162209,,,,,1.0,139.0
F01836,Bajcsy-Zsilinszky Kórház,47.479773,19.162739,,,,,1.0,-42.0
F01856,Pongrácz úti lakótelep,47.491221,19.120286,,,,,2.0,87.0
F01857,Pongrácz úti lakótelep,47.491293,19.119782,,,,,2.0,-92.0
F01862,Fehér úti ipari park,47.499897,19.137353,,,,,1.0,171.0
F01863,Fehér úti ipari park,47.49951,19.137564,,,,,1.0,-9.0
F01866,Új köztemető (Kozma utca),47.475097,19.178223,,,,,2.0,0.0
F01867,Új köztemető (Kozma utca),47.47463,19.178129,,,,,2.0,163.0
F01878,Pöttyös utca,47.468557,19.117532,F01878,,,CSF01878,1.0,-62.0
F01879,Pöttyös utca,47.467939,19.118838,F01879,,,CSF01878,1.0,118.0
F01885,Kamaraerdei Ifjúsági Park,47.44116,18.97949,,,,,2.0,
F01888,Repülőtér,47.444609,18.986738,,,,,2.0,57.0
F01889,Repülőtér,47.444777,18.986905,,,,,2.0,-117.0
F01890,Fülőke utca,47.44543,18.991497,,,,,2.0,-90.0
F01891,Fülőke utca,47.44534,18.991471,,,,,2.0,91.0
F01892,Balatoni út,47.444573,19.005406,,,,,2.0,-68.0
F01893,Balatoni út,47.444402,19.005671,,,,,2.0,112.0
F01894,Kelenvölgy-Péterhegy,47.443568,19.012407,,,,,2.0,-82.0
F01895,Kelenvölgy-Péterhegy,47.443505,19.012062,,,,,2.0,98.0
F01902,Budafoki elágazás,47.435406,19.035717,,,,,2.0,-88.0
F01903,Budafoki elágazás,47.435415,19.036207,,,,,2.0,59.0
F01904,Budafoki elágazás,47.434785,19.03642,,,,,2.0,164.0
F01905,Budafoki elágazás,47.43546,19.036433,,,,,2.0,15.0
F01989,Budafoki út / Szerémi sor,47.473677,19.052807,,,,,1.0,-126.0
F01992,Budafoki út / Szerémi sor,47.474091,19.053736,,,,,1.0,53.0
F01997,Újbuda-központ M,47.474467,19.046478,,,,,1.0,-167.0
F01998,Újbuda-központ M,47.474045,19.046863,,,,,1.0,
F01999,Újbuda-központ M,47.4748,19.046664,,,,,1.0,15.0
F02003,Hauszmann Alajos utca,47.467039,19.043919,,,,,1.0,14.0
F02004,Hauszmann Alajos utca,47.467345,19.043933,,,,,1.0,-166.0
F02009,Etele út / Fehérvári út,47.463398,19.042572,,,,,1.0,13.0
F02010,Etele út / Fehérvári út,47.462639,19.042274,,,,,1.0,-167.0
F02013,Andor utca,47.456129,19.039889,,,,,1.0,-166.0
F02014,Andor utca,47.455715,19.039836,,,,,1.0,13.0
F02016,Albertfalva kitérő,47.452172,19.038418,,,,,1.0,-156.0
F02017,Albertfalva kitérő,47.452666,19.038776,,,,,1.0,13.0
F02019,Albertfalva utca,47.447926,19.037583,,,,,1.0,6.0
F02020,Albertfalva utca,47.44762,19.037371,,,,,1.0,-173.0
F02024,Fonyód utca,47.443789,19.036908,,,,,1.0,6.0
F02025,Fonyód utca,47.443483,19.036709,,,,,1.0,-174.0
F02029,Budafok kocsiszín,47.441783,19.036577,,,,,1.0,6.0
F02031,Budafok kocsiszín,47.441414,19.036378,,,,,1.0,-173.0
F02038,Szent Gellért-templom,47.468566,19.023744,,,,,1.0,-123.0
F02039,Szent Gellért-templom,47.46862,19.024102,,,,,1.0,57.0
F02040,Csóka utca (Karinthy Színház),47.470851,19.029195,,,,,1.0,56.0
F02042,Csóka utca (Karinthy Színház),47.470698,19.028585,,,,,1.0,-122.0
F02046,Karolina út,47.472838,19.033676,,,,,1.0,57.0
F02047,Karolina út,47.472696,19.033201,,,,,1.0,-123.0
F02082,Márton Áron tér,47.48168,18.999021,,,,,2.0,-152.0
F02097,Süveg utca,47.481431,19.004925,,,,,2.0,20.0
F02099,Süveg utca,47.481197,19.0047,,,,,2.0,-160.0
F02100,Farkasréti temető,47.483923,19.005374,,,,,2.0,-162.0
F02101,Farkasréti temető,47.484282,19.005679,,,,,2.0,20.0
F02115,Alsóhegy utca,47.482941,19.03009,,,,,1.0,-58.0
F02116,Alsóhegy utca,47.482702,19.030463,,,,,1.0,122.0
F02126,Szüret utca,47.480283,19.036129,,,,,1.0,122.0
F02127,Szüret utca,47.480185,19.036537,,,,,1.0,-58.0
F02146,Tas vezér utca,47.478854,19.040156,,,,,1.0,112.0
F02147,Tas vezér utca,47.478818,19.040577,,,,,1.0,-67.0
F02148,Gárdonyi tér,47.479991,19.051428,,,,,1.0,-154.0
F02149,Gárdonyi tér,47.480522,19.051932,,,,,1.0,24.0
F02153,Budafoki út / Karinthy Frigyes út,47.475827,19.054107,,,,,1.0,114.0
F02154,Budafoki út / Karinthy Frigyes út,47.476025,19.053457,,,,,1.0,-68.0
F02166,BAH-csomópont,47.48719,19.024696,,,,,1.0,-1.0
F02167,BAH-csomópont,47.486852,19.024596,,,,,1.0,179.0
F02171,Budaörsi út / Villányi út,47.484109,19.026812,,,,,1.0,-50.0
F02172,Budaörsi út / Villányi út,47.484134,19.026586,,,,,1.0,132.0
F02181,Kosztolányi Dezső tér,47.47499,19.039382,,,,,1.0,-117.0
F02184,Kosztolányi Dezső tér,47.475179,19.040191,,,,,1.0,62.0
F02194,Móricz Zsigmond körtér M,47.477248,19.047328,,,,,1.0,3.0
F02197,Móricz Zsigmond körtér M,47.478074,19.044899,,,,,2.0,-80.0
F02200,Móricz Zsigmond körtér M,47.477815,19.046253,,,,,2.0,99.0
F02202,Móricz Zsigmond körtér M,47.477374,19.046161,,,,,1.0,-117.0
F02203,Móricz Zsigmond körtér M,47.477491,19.046864,,,,,1.0,64.0
F02224,"Petőfi híd, budai hídfő",47.476672,19.058963,,,,,1.0,-127.0
F02225,"Petőfi híd, budai hídfő",47.476933,19.059586,,,,,1.0,54.0
F02238,Csonka János tér,47.469783,19.044821,,,,,1.0,-165.0
F02239,Csonka János tér,47.470259,19.045087,,,,,1.0,13.0
F02240,Kalotaszeg utca,47.459178,19.041003,,,,,1.0,-167.0
F02241,Kalotaszeg utca,47.458827,19.040976,,,,,1.0,14.0
F02252,Pető Intézet (Villányi út),47.481864,19.032616,,,,,1.0,-58.0
F02253,Pető Intézet (Villányi út),47.481659,19.032915,,,,,1.0,124.0
F02296,Vas Gereben utca,47.489078,19.009536,,,,,2.0,-164.0
F02297,Vas Gereben utca,47.489321,19.009762,,,,,2.0,16.0
F02298,Zólyomi lépcső,47.490383,19.011818,,,,,2.0,-80.0
F02299,Zólyomi lépcső,47.490257,19.012216,,,,,2.0,99.0
F02300,Apor Vilmos tér,47.4905,19.014857,,,,,2.0,-86.0
F02301,Apor Vilmos tér,47.490402,19.015268,,,,,2.0,98.0
F02306,Kiss János altábornagy utca,47.492273,19.016461,,,,,1.0,-169.0
F02307,Kiss János altábornagy utca,47.492498,19.016647,,,,,2.0,10.0
F02313,"Széchenyi-hegy, Gyermekvasút",47.495117,18.9795,,,,,1.0,
F02314,Művész út,47.496198,18.983838,,,,,2.0,-105.0
F02315,Művész út,47.496244,18.984223,,,,,2.0,79.0
F02316,Svábhegy,47.497398,18.989331,,,,,1.0,-155.0
F02317,Svábhegy,47.497875,18.989768,,,,,1.0,20.0
F02318,Városkút,47.500096,18.989408,,,,,2.0,151.0
F02319,Városkút,47.500357,18.989195,,,,,2.0,-27.0
F02320,Adonis utca,47.503118,18.989736,,,,,2.0,-151.0
F02321,Adonis utca,47.503316,18.990107,,,,,2.0,32.0
F02322,Erdei iskola,47.507204,18.994364,,,,,2.0,-133.0
F02323,Erdei iskola,47.507393,18.994656,,,,,2.0,47.0
F02324,Esze Tamás iskola,47.507304,18.997935,,,,,2.0,-44.0
F02325,Esze Tamás iskola,47.507098,18.998267,,,,,2.0,130.0
F02326,Orgonás,47.506713,19.002501,,,,,2.0,-91.0
F02327,Orgonás,47.506605,19.003165,,,,,2.0,88.0
F02328,Szent János Kórház,47.508145,19.008248,,,,,1.0,-135.0
F02329,Szent János Kórház,47.508361,19.008566,,,,,1.0,44.0
F02330,Városmajor,47.509407,19.012784,,,,,1.0,
F02407,Kék Golyó utca,47.497814,19.021129,,,,,2.0,20.0
F02408,Kék Golyó utca,47.497571,19.020891,,,,,2.0,-159.0
F02414,Királyhágó tér,47.495521,19.019711,,,,,2.0,-158.0
F02416,Csörsz utca,47.490206,19.024437,,,,,1.0,173.0
F02417,Csörsz utca,47.490782,19.024447,,,,,1.0,-8.0
F02421,Királyhágó tér,47.494972,19.01926,,,,,1.0,38.0
F02460,Széll Kálmán tér M,47.506863,19.024178,,,,,1.0,-49.0
F02461,Széll Kálmán tér M,47.506611,19.02439,,,,,1.0,127.0
F02462,Széll Kálmán tér M,47.506441,19.024775,,,,,1.0,-144.0
F02476,Széll Kálmán tér M,47.507358,19.024496,,,,,1.0,-82.0
F02477,Széll Kálmán tér M,47.507232,19.025186,,,,,1.0,79.0
F02479,Széll Kálmán tér M,47.507133,19.02374,,,,,1.0,
F02480,Széll Kálmán tér,47.506818,19.024895,F02480,,,CSF02481,2.0,-137.0
F02481,Széll Kálmán tér,47.507533,19.026097,F02481,,,CSF02481,2.0,45.0
F02527,Népfürdő utca / Árpád híd,47.536294,19.058868,,,,,1.0,-73.0
F02528,Népfürdő utca / Árpád híd,47.536087,19.059532,,,,,1.0,108.0
F02544,Gyöngyösi utca,47.546217,19.089038,,,,,2.0,20.0
F02545,Gyöngyösi utca,47.545902,19.088745,,,,,2.0,-160.0
F02553,Fiastyúk utca,47.540159,19.085595,,,,,2.0,-160.0
F02554,Fiastyúk utca,47.540537,19.085874,,,,,2.0,20.0
F02578,Göncz Árpád városközpont M,47.532219,19.0673,,,,,1.0,-46.0
F02585,Béke tér,47.529376,19.080195,,,,,2.0,-160.0
F02587,Béke tér,47.529745,19.080488,,,,,2.0,17.0
F02591,Lehel utca / Róbert Károly körút,47.526244,19.078506,,,,,2.0,13.0
F02593,Lehel utca / Róbert Károly körút,47.525833,19.078188,,,,,2.0,-154.0
F02596,Lehel utca / Róbert Károly körút,47.525797,19.077524,,,,,1.0,133.0
F02597,Lehel utca / Róbert Károly körút,47.5262,19.076952,,,,,1.0,-46.0
F02600,Göncz Árpád városközpont M,47.532974,19.066119,,,,,1.0,137.0
F02613,Lehel tér,47.518659,19.060859,F02613,,,CSLM3LED,1.0,16.0
F02614,Lehel tér,47.517595,19.060285,F02614,,,CSLM3LED,1.0,-162.0
F02615,Lehel tér M,47.517354,19.060723,,,,,2.0,
F02621,Lehel utca / Dózsa György út,47.521014,19.069289,,,,,2.0,-128.0
F02624,Lehel utca / Dózsa György út,47.520751,19.069009,,,,,2.0,52.0
F02631,Vágány utca / Róbert Károly körút,47.523617,19.080987,,,,,1.0,-46.0
F02632,Vágány utca / Róbert Károly körút,47.52323,19.081478,,,,,1.0,135.0
F02637,Göncz Árpád városközpont,47.533217,19.067089,F02637,,,CSLM3AHG,1.0,16.0
F02638,Göncz Árpád városközpont,47.532171,19.066471,F02638,,,CSLM3AHG,1.0,-164.0
F02642,Honvédkórház,47.530449,19.070169,,,,,1.0,-47.0
F02643,Honvédkórház,47.530041,19.070699,,,,,1.0,133.0
F02659,Rokolya utca,47.542539,19.087016,,,,,2.0,21.0
F02660,Rokolya utca,47.542701,19.086976,,,,,2.0,-159.0
F02667,Hun utca,47.524185,19.075211,,,,,2.0,-129.0
F02668,Hun utca,47.523961,19.074946,,,,,2.0,51.0
F02673,Frangepán utca,47.534365,19.082521,,,,,2.0,20.0
F02674,Frangepán utca,47.533945,19.082177,,,,,2.0,-161.0
F02680,Dózsa György út,47.52543,19.063737,F02680,,,CSF02680,1.0,16.0
F02681,Dózsa György út,47.524358,19.063088,F02681,,,CSF02680,1.0,-163.0
F02682,Forgách utca,47.53916,19.069648,F02682,,,CSL008159,1.0,16.0
F02683,Forgách utca,47.538163,19.069055,F02683,,,CSL008159,1.0,-163.0
F02684,Gyöngyösi utca,47.549394,19.073575,F02684,,,CSLM3GUE,1.0,14.0
F02685,Gyöngyösi utca,47.548374,19.073019,F02685,,,CSLM3GUE,1.0,-165.0
F02696,Széchenyi fürdő,47.517508,19.08098,F02696,,,CSLM1SFV,2.0,-88.0
F02697,Széchenyi fürdő,47.517407,19.081481,F02697,,,CSLM1SFV,2.0,89.0
F02731,Zugló vasútállomás,47.510921,19.09958,,,,,1.0,140.0
F02732,Zugló vasútállomás,47.511344,19.099156,,,,,1.0,-38.0
F02743,Egressy út / Hungária körút,47.507177,19.10405,,,,,1.0,-37.0
F02744,Egressy út / Hungária körút,47.506744,19.104445,,,,,1.0,142.0
F02748,Pongrátz Gergely tér,47.509482,19.128993,,,,,1.0,128.0
F02753,Pongrátz Gergely tér,47.50933,19.129449,,,,,1.0,-49.0
F02796,Egressy tér,47.514875,19.119827,,,,,1.0,131.0
F02797,Egressy tér,47.51456,19.12061,,,,,1.0,-49.0
F02814,Szugló utca / Nagy Lajos király útja,47.51736,19.115688,,,,,1.0,127.0
F02818,Szugló utca / Nagy Lajos király útja,47.517144,19.116219,,,,,1.0,-48.0
F02831,Bosnyák tér,47.519458,19.111761,,,,,1.0,116.0
F02832,Bosnyák tér,47.519152,19.112637,,,,,1.0,
F02857,Öv utca,47.534361,19.112482,,,,,1.0,32.0
F02858,Öv utca,47.534721,19.112695,,,,,1.0,-148.0
F02861,Rákospatak utca,47.529228,19.107563,,,,,1.0,-149.0
F02863,Rákospatak utca,47.528617,19.107111,,,,,1.0,30.0
F02865,Nagy Lajos király útja / Czobor utca,47.5228,19.101992,F02865,,,MERGED_F02865,1.0,-150.0
F02866,Nagy Lajos király útja / Czobor utca,47.522352,19.101636,,,,,1.0,47.0
F02869,Nagy Lajos király útja / Czobor utca,47.522386,19.102443,,,,,1.0,-68.0
F02879,"Erzsébet királyné útja, aluljáró",47.517542,19.093251,,,,,1.0,137.0
F02880,"Erzsébet királyné útja, aluljáró",47.517821,19.093052,,,,,1.0,-43.0
F02887,Mexikói út,47.519592,19.090573,F02887,,,CSLM1MUV,2.0,-87.0
F02888,Mexikói út,47.519513,19.091037,F02888,,,CSLM1MUV,2.0,97.0
F02893,Kacsóh Pongrác út,47.519064,19.088114,,,,,1.0,-46.0
F02894,Kacsóh Pongrác út,47.518677,19.088565,,,,,1.0,136.0
F02909,Miskolci utca,47.532527,19.110648,,,,,1.0,-148.0
F02911,Miskolci utca,47.532177,19.110421,,,,,1.0,32.0
F02923,"Erzsébet királyné útja, aluljáró",47.5164,19.091909,,,,,1.0,134.0
F02924,"Erzsébet királyné útja, aluljáró",47.51681,19.091387,,,,,1.0,-49.0
F02947,Fűrész utca,47.526272,19.104973,,,,,1.0,-150.0
F02948,Fűrész utca,47.525785,19.104691,,,,,1.0,30.0
F02962,Laky Adolf utca,47.519618,19.097435,,,,,1.0,47.0
F02963,Laky Adolf utca,47.519951,19.097727,,,,,1.0,-134.0
F02966,Kerékgyártó utca,47.521296,19.105828,,,,,1.0,112.0
F02967,Kerékgyártó utca,47.521278,19.106266,,,,,1.0,-68.0
F02968,Tihamér utca,47.50706,19.133051,,,,,1.0,131.0
F02969,Tihamér utca,47.506942,19.133449,,,,,1.0,-49.0
F02971,Jeszenák János utca,47.511733,19.125199,,,,,1.0,131.0
F02972,Jeszenák János utca,47.511553,19.125703,,,,,1.0,-49.0
F02979,Ajtósi Dürer sor,47.513431,19.096261,,,,,1.0,134.0
F02980,Ajtósi Dürer sor,47.513809,19.095757,,,,,1.0,-46.0
F03019,Géza fejedelem tér,47.568355,19.118052,,,,,2.0,123.0
F03020,Géza fejedelem tér,47.568562,19.117959,,,,,2.0,-60.0
F03023,Dal utca,47.567265,19.121014,,,,,2.0,-60.0
F03024,Fő út,47.566446,19.122488,,,,,2.0,132.0
F03028,"Rákospalota, Kossuth utca",47.567577,19.12536,,,,,2.0,
F03102,"Rákospalota, MÁV-telep",47.541542,19.12159,,,,,2.0,51.0
F03103,"Rákospalota, MÁV-telep",47.541389,19.120939,,,,,2.0,-163.0
F03110,Szerencs utca / Bánkút utca,47.546848,19.127101,,,,,2.0,-139.0
F03111,Szerencs utca / Bánkút utca,47.546521,19.126857,,,,,2.0,41.0
F03149,"Újpalota, Erdőkerülő utca",47.539546,19.145362,,,,,2.0,
F03155,Fő tér,47.541959,19.141196,,,,,1.0,131.0
F03156,Fő tér,47.542184,19.140997,,,,,1.0,-49.0
F03161,Vásárcsarnok,47.544821,19.139035,,,,,2.0,131.0
F03162,Vásárcsarnok,47.545028,19.138863,,,,,2.0,-49.0
F03191,Sárfű utca,47.547865,19.134059,,,,,2.0,-49.0
F03192,Sárfű utca,47.547991,19.133661,,,,,2.0,131.0
F03205,Tóth István utca,47.53828,19.117003,,,,,1.0,-137.0
F03206,Tóth István utca,47.537902,19.116604,,,,,1.0,43.0
F03690,Iparvasút,47.436417,19.196966,,,,,2.0,-64.0
F03692,Iparvasút,47.436689,19.195933,,,,,2.0,117.0
F03708,Thököly út,47.442726,19.17951,,,,,2.0,122.0
F03710,Thököly út,47.44259,19.180066,,,,,2.0,-58.0
F03718,Szarvas csárda tér,47.440489,19.18498,,,,,1.0,-59.0
F03719,Szarvas csárda tér,47.439975,19.186105,,,,,1.0,118.0
F03734,Lajosmizsei sorompó,47.450561,19.161323,,,,,2.0,-58.0
F03737,Lajosmizsei sorompó,47.450994,19.160104,,,,,2.0,122.0
F03739,Tinódi utca,47.449542,19.163509,,,,,2.0,122.0
F03741,Tinódi utca,47.44984,19.163032,,,,,2.0,-56.0
F03755,Margó Tivadar utca,47.44791,19.167324,,,,,2.0,123.0
F03756,Margó Tivadar utca,47.447883,19.167603,,,,,2.0,-58.0
F03768,Baross utca,47.444511,19.175285,,,,,1.0,122.0
F03771,Baross utca,47.444475,19.175603,,,,,2.0,-58.0
F03791,"Pestszentlőrinc, Béke tér",47.429346,19.217836,,,,,2.0,
F03803,Honvéd utca,47.434801,19.201495,,,,,2.0,117.0
F03805,Honvéd utca,47.434747,19.201893,,,,,2.0,-63.0
F03822,Madarász utca,47.437835,19.192781,,,,,2.0,-63.0
F03823,Madarász utca,47.437646,19.193085,,,,,2.0,115.0
F03833,Kemény Zsigmond utca,47.445783,19.172318,,,,,2.0,122.0
F03834,Kemény Zsigmond utca,47.446044,19.171894,,,,,2.0,-58.0
F03853,Ungvár utca,47.431216,19.212049,,,,,2.0,117.0
F03854,Ungvár utca,47.431225,19.212261,,,,,2.0,-63.0
F03884,Bajcsy-Zsilinszky út,47.433185,19.206501,,,,,2.0,-63.0
F03885,Bajcsy-Zsilinszky út,47.43295,19.206964,,,,,2.0,117.0
F03899,Corvin körút,47.462079,19.13412,,,,,2.0,122.0
F03900,Corvin körút,47.461998,19.134504,,,,,2.0,-59.0
F03903,Árpád utca,47.454554,19.151731,,,,,1.0,122.0
F03904,Árpád utca,47.454806,19.151374,,,,,1.0,-58.0
F03926,Corvin körút,47.460399,19.131663,,,,,1.0,137.0
F03927,Corvin körút,47.460192,19.132127,,,,,1.0,-44.0
F03930,Határ út M,47.465151,19.127254,,,,,1.0,
F03931,Lehel utca,47.459475,19.140256,,,,,2.0,122.0
F03932,Lehel utca,47.459312,19.140826,,,,,2.0,-57.0
F03946,Kossuth tér,47.457745,19.144483,,,,,1.0,-58.0
F03947,Kossuth tér,47.457501,19.144841,,,,,1.0,123.0
F03953,Fő utca,47.456321,19.14761,,,,,2.0,122.0
F03954,Fő utca,47.456627,19.14712,,,,,2.0,-58.0
F03960,Hungária út (Rendőrség),47.456311,19.137412,,,,,1.0,137.0
F03961,Hungária út (Rendőrség),47.455987,19.138035,,,,,1.0,-43.0
F03979,Kossuth Lajos utca / Ady Endre út,47.450059,19.146464,,,,,2.0,-44.0
F03980,Kossuth Lajos utca / Ady Endre út,47.450152,19.146167,,,,,2.0,136.0
F04003,Vas Gereben utca / Ady Endre út,47.447793,19.149543,,,,,2.0,136.0
F04004,Vas Gereben utca / Ady Endre út,47.447684,19.149835,,,,,2.0,-44.0
F04021,Templom tér,47.452826,19.142459,,,,,2.0,-44.0
F04022,Templom tér,47.452574,19.142697,,,,,2.0,136.0
F04030,Villanytelep,47.452454,19.156673,,,,,2.0,121.0
F04031,Villanytelep,47.452622,19.156547,,,,,2.0,-59.0
F04039,"Kispest, Tulipán utca",47.445694,19.152669,,,,,2.0,
F04044,Pöltenberg utca,47.433042,19.111711,,,,,2.0,-44.0
F04060,Pöltenberg utca,47.430714,19.108964,,,,,2.0,144.0
F04061,Székelyhíd utca,47.43071,19.115486,,,,,2.0,-116.0
F04063,Wesselényi utca,47.427982,19.11971,,,,,2.0,-34.0
F04080,Ábrahám Géza utca,47.421219,19.119105,,,,,2.0,142.0
F04081,"Pesterzsébet, Pacsirtatelep",47.422179,19.122499,,,,,2.0,54.0
F04106,Szabótelep,47.440369,19.116638,,,,,2.0,-45.0
F04107,Vécsey utca,47.438562,19.115283,,,,,2.0,46.0
F04108,Szent Imre herceg utca,47.436657,19.112338,,,,,2.0,59.0
F04111,Nagysándor József utca,47.43602,19.109554,,,,,2.0,140.0
F04113,Török Flóris utca,47.435507,19.1095,,,,,1.0,60.0
F04116,Vörösmarty utca,47.434313,19.106649,,,,,2.0,-130.0
F04130,Kossuth Lajos utca,47.439382,19.10557,,,,,2.0,142.0
F04131,János tér,47.441708,19.10256,,,,,2.0,140.0
F04138,Kossuth Lajos utca,47.443178,19.112624,,,,,2.0,-44.0
F04152,Török Flóris utca,47.444012,19.099752,,,,,2.0,134.0
F04159,Akácfa utca,47.425912,19.114118,,,,,2.0,144.0
F04160,Klapka utca,47.428684,19.111179,,,,,2.0,144.0
F04163,Károly utca,47.423235,19.117014,,,,,2.0,145.0
F04164,Frangepán utca,47.424265,19.12335,,,,,2.0,-34.0
F04172,Thököly utca,47.445716,19.109034,,,,,2.0,-45.0
F04375,Pék utca,47.442283,19.018507,,,,,2.0,105.0
F04376,Pék utca,47.442382,19.018056,,,,,2.0,-73.0
F04377,Rózsavölgy felső,47.441043,19.023094,,,,,2.0,-53.0
F04378,Rózsavölgy felső,47.441025,19.022882,,,,,2.0,125.0
F04379,Rózsavölgy alsó,47.438409,19.03036,,,,,2.0,-66.0
F04380,Rózsavölgy alsó,47.438193,19.030705,,,,,2.0,111.0
F04381,Leányka utcai lakótelep,47.432195,19.037229,,,,,2.0,174.0
F04382,Leányka utcai lakótelep,47.432501,19.037282,,,,,2.0,-6.0
F04396,Savoyai Jenő tér,47.429875,19.037786,,,,,2.0,168.0
F04397,Savoyai Jenő tér,47.429614,19.037879,,,,,2.0,-12.0
F04404,Városház tér,47.426349,19.03951,,,,,2.0,157.0
F04405,Városház tér,47.427087,19.039165,,,,,2.0,-24.0
